全国地方公共団体コード,識別値,種別,種別小分類,name,施設名（カナ）,通称,住所表記,郵便番号,lat,lon,description,連絡先名称,電話番号,Webサイト
23204,KSDT01,保育園,民間,東保育園,ヒガシホイクエン,,愛知県瀬戸市春雨町4,4890893,35.22,137.10573,,東保育園,0561-82-2284,
23204,KSDT02,保育園,公立,西保育園,ニシホイクエン,,愛知県瀬戸市陶原町6丁目2,4890805,35.22322,137.0865,,西保育園,0561-82-3090,
23204,KSDT03,保育園,公立,南保育園,ミナミホイクエン,,愛知県瀬戸市原山町1-13,4890889,35.21824,137.09514,,南保育園,0561-82-2900,
23204,KSDT04,保育園,民間,瀬戸北保育園,セトキタホイクエン,,愛知県瀬戸市西谷町84,4890047,35.22825,137.09611,,瀬戸北保育園,0561-82-2949,
23204,KSDT05,保育園,公立,水南保育園,スイナンホイクエン,,愛知県瀬戸市東松山町155,4890069,35.23175,137.08307,,水南保育園,"0561-82-4313 	",
23204,KSDT06,保育園,公立,水北保育園,スイホクホイクエン,,愛知県瀬戸市中水野町1丁目141,4890005,35.24605,137.08023,,水北保育園,0561-48-1741,
23204,KSDT07,保育園,公立,古瀬戸保育園,コセトホイクエン,,愛知県瀬戸市西拝戸町16-2,4890848,35.227,137.11535,,古瀬戸保育園,0561-82-4544,
23204,KSDT08,保育園,公設民営,幡山保育園,ハタヤマホイクエン,,愛知県瀬戸市瘤木町70,4890879,35.21419,137.08169,,幡山保育園,0561-82-3906,
23204,KSDT09,保育園,公立,幡山東保育園,ハヤタマヒガシホイクエン,,愛知県瀬戸市田中町103,4890961,35.19603,137.10093,,幡山東保育園,0561-82-4405,
23204,KSDT10,保育園,民間,アートチャイルドケア瀬戸幡山西保育園,アートチャイルドケアセトハタヤマニシホイクエン,,愛知県瀬戸市西本地町1丁目110-1,4890971,35.2047,137.06244,,アートチャイルドケア瀬戸幡山西保育園,0561-89-5135,
23204,KSDT11,保育園,公立,幡山南保育園,ハタヤマミナミホイクエン,,愛知県瀬戸市東菱野町142,4890942,35.20138,137.08299,,幡山南保育園,0561-83-4048,
23204,KSDT12,保育園,公立,品野西保育園,シナノニシホイクエン,,愛知県瀬戸市品野町6丁目183,4801207,35.25009,137.12147,,品野西保育園,0561-41-0418,
23204,KSDT13,保育園,公設民営,こうはん保育園,コウハンホイクエン,,愛知県瀬戸市南山町1丁目118,4890986,35.22328,137.06333,,こうはん保育園,0561-82-3252,
23204,KSDT14,保育園,民間,アートチャイルドケア瀬戸南山保育園,アートチャイルドケアセトミナミヤマホイクエン,,愛知県瀬戸市南山町1丁目152-2,4890986,35.22561,137.06531,,アートチャイルドケア瀬戸南山保育園,0561-97-0125,
23204,KSDT15,保育園,公立,原山保育園,ハラヤマホイクエン,,愛知県瀬戸市原山台2丁目9,4890888,35.21211,137.08935,,原山保育園,0561-83-4951,
23204,KSDT16,保育園,民間,萩山保育園,ハギヤマホイクエン,,愛知県瀬戸市萩山台3丁目69,4890886,35.21285,137.10364,,萩山保育園,0561-84-3872,
23204,KSDT17,保育園,公立,八幡保育園,ハチマンホイクエン,,愛知県瀬戸市八幡台2丁目11-1,4890861,35.2059,137.09242,,八幡保育園,0561-84-7555,
23204,KSDT18,幼稚園,,瀬戸ひなご幼稚園,セトヒナゴヨウチエン,,愛知県瀬戸市紺屋田町93-1,4890035,35.23555,137.11375,,瀬戸ひなご幼稚園,0561-82-7760,
23204,KSDT19,幼稚園,,雪の聖母幼稚園,ユキノセイボヨウチエン,,愛知県瀬戸市東長根町91,4890871,35.21697,137.07856,,雪の聖母幼稚園,0561-82-6409,
23204,KSDT20,幼稚園,,マリア幼稚園,マリアヨウチエン,,愛知県瀬戸市苗場町8,4890983,35.22818,137.07525,,マリア幼稚園,0561-82-9749,
23204,KSDT21,幼稚園,,真貴幼稚園,マキヨウチエン,,愛知県瀬戸市原山台2-23-2,4890888,35.21072,137.09348,,真貴幼稚園,0561-21-4128,
23204,KSDT22,幼稚園,,菱野幼稚園,ヒシノヨウチエン,,愛知県瀬戸市萩山台7-13-1,4890886,35.21113,137.10206,,菱野幼稚園,0561-83-3651,
23204,KSDT23,幼稚園,,はちまん幼稚園,ハチマンヨウチエン,,愛知県瀬戸市八幡台4-14-1,4890861,35.20355,137.09697,,はちまん幼稚園,0561-83-8703,
23204,KSDT24,幼稚園,,瀬戸幼稚園,セトヨウチエン,,愛知県瀬戸市すみれ台4-40-5,4890904,35.24086,137.0757,,瀬戸幼稚園,0561-48-4800,
23204,KSDT25,保育園,民間,みずの保育園,ミズノホイクエン,,愛知県瀬戸市はぎの台1丁目29,4890905,35.23885,137.06995,,みずの保育園,0561-48-2346,
23204,KSDT26,保育園,民間,ふたば保育園,フタバホイクエン,,愛知県瀬戸市東長根町117,4890871,35.2152,137.07567,,ふたば保育園,0561-83-2811,
23204,KSDT27,保育園,民間,アスク新瀬戸保育園,アスクシンセトホイクエン,,愛知県瀬戸市苗場町63-1,4890983,35.22864,137.07446,,アスク新瀬戸保育園,0561-21-8790,
23204,KSDT28,保育園,民間,ぽっぽ保育園,ポッポホイクエン,,愛知県瀬戸市八幡台3丁目10,4890861,35.20646,137.09697,,ぽっぽ保育園,0561-84-3239,
23204,KSDT29,保育園,民間,ひかり保育園,ヒカリホイクエン,,愛知県瀬戸市湯之根町１,4890078,35.22937,137.1016,,ひかり保育園,0561-84-5373,
23204,KSDT30,保育園,民間,みどり保育所,ミドリホイクショ,,愛知県瀬戸市白山町2丁目10-1,4890876,35.2043,137.09038,,みどり保育所,0561-82-3208,
23204,KSDT31,保育園,民間,ひかりみつる保育園,ヒカリミツルホイクエン,,愛知県瀬戸市東山町1丁目169-2,4890988,35.22933,137.06296,,ひかりみつる保育園,0561-83-7555,
23204,KSDT32,小規模保育所,,松ヶ丘共同保育所,マツガオカキョウドウホイクショ,,愛知県瀬戸市松原町2丁目73-2,4890985,35.22612,137.0683,,松ヶ丘共同保育所,0561-21-3757,
232262,,児童厚生施設,児童館,尾張旭市藤池児童館,オワリアサヒシフジイケジドウカン,,尾張旭市東栄町一丁目4-7,4880011,35.219255,137.049664,,尾張旭市藤池児童館,0561-54-8734,http://www.city.owariasahi.lg.jp/kurasi/kosodate/jidoukan/itiran/hujiike.html
232262,,児童厚生施設,児童館,尾張旭市白鳳児童館,オワリアサヒシハクホウジドウカン,,尾張旭市白鳳町二丁目20,4880858,35.211562,137.01433,,尾張旭市白鳳児童館,0561-52-0438,http://www.city.owariasahi.lg.jp/kurasi/kosodate/jidoukan/itiran/hakuhou.html
232262,,児童厚生施設,児童館,尾張旭市平子児童館,オワリアサヒシヒラコジドウカン,,尾張旭市平子町中通219-2,4880873,35.221378,137.02475,,尾張旭市平子児童館,0561-52-3522,http://www.city.owariasahi.lg.jp/kurasi/kosodate/jidoukan/itiran/hirako.html
232262,,児童厚生施設,児童館,尾張旭市本地ケ原児童館,オワリアサヒシホンジガハラジドウカン,,尾張旭市南新町中畑1-130,4880041,35.199623,137.032277,,尾張旭市本地ケ原児童館,0561-53-8171,http://www.city.owariasahi.lg.jp/kurasi/kosodate/jidoukan/itiran/honji.html
232262,,児童厚生施設,児童館,尾張旭市瑞鳳児童館,オワリアサヒシズイホウジドウカン,,尾張旭市大塚町二丁目10-3,4880826,35.201604,137.020398,,尾張旭市瑞鳳児童館,052-776-5060,http://www.city.owariasahi.lg.jp/kurasi/kosodate/jidoukan/itiran/zuihou.html
232262,,児童厚生施設,児童館,尾張旭市三郷児童館,オワリアサヒシサンゴウジドウカン,,尾張旭市瀬戸川町一丁目229,4880023,35.212916,137.055546,,尾張旭市三郷児童館,0561-52-6848,http://www.city.owariasahi.lg.jp/kurasi/kosodate/jidoukan/itiran/sangou.html
232262,,児童厚生施設,児童館,尾張旭市中部児童館,オワリアサヒシチュウブジドウカン,,尾張旭市西の野町五丁目12-3,4880804,35.211055,137.03586,,尾張旭市中部児童館,0561-53-5060,http://www.city.owariasahi.lg.jp/kurasi/kosodate/jidoukan/itiran/tyuubu.html
232262,,児童厚生施設,児童館,尾張旭市旭丘児童館,オワリアサヒシアサヒガオカジドウカン,,尾張旭市大久手町上切戸62,4880005,35.223779,137.045414,,尾張旭市旭丘児童館,0561-52-5131,http://www.city.owariasahi.lg.jp/kurasi/kosodate/jidoukan/itiran/asahigaoka.html
232262,,児童厚生施設,児童館,尾張旭市渋川児童館,オワリアサヒシシブカワジドウカン,,尾張旭市渋川町一丁目6-1,4880839,35.208289,137.018922,,尾張旭市渋川児童館,0561-51-1919,http://www.city.owariasahi.lg.jp/kurasi/kosodate/jidoukan/itiran/sibukawa.html
232262,,子育て支援施設,児童クラブ,旭丘児童クラブ,アサヒガオカジドウクラブ,,尾張旭市大久手町上切戸117-1（尾張旭市立旭丘小学校内）,4880005,35.223346,137.043637,,旭丘児童クラブ,0561-54-7773,http://www.city.owariasahi.lg.jp/koukyousisetu/jido/010.html
232262,,子育て支援施設,児童クラブ,本地ヶ原児童クラブ,ホンジガハラジドウクラブ,,尾張旭市南新町中畑252（尾張旭市立本地原小学校内）,4880041,35.198323,137.030424,,本地ヶ原児童クラブ,0561-52-5544,http://www.city.owariasahi.lg.jp/koukyousisetu/jido/011.html
232262,,子育て支援施設,児童クラブ,瑞鳳児童クラブ,ズイホウジドウクラブ,,尾張旭市大塚町二丁目10-3（尾張旭市立瑞鳳児童館内）,4880826,35.201604,137.020398,,瑞鳳児童クラブ,052-776-5060,http://www.city.owariasahi.lg.jp/koukyousisetu/jido/012.html
232262,,子育て支援施設,児童クラブ,渋川児童クラブ,シブカワジドウクラブ,,尾張旭市渋川町一丁目6-1（尾張旭市立渋川児童館内）,4880839,35.208289,137.018922,,渋川児童クラブ,0561-51-1919,http://www.city.owariasahi.lg.jp/koukyousisetu/jido/013.html
232262,,子育て支援施設,児童クラブ,白鳳児童クラブ,ハクホウジドウクラブ,,尾張旭市白鳳町一丁目12（尾張旭市立白鳳小学校内）,4880858,35.212993,137.014004,,白鳳児童クラブ,0561-53-8400,http://www.city.owariasahi.lg.jp/koukyousisetu/jido/014.html
232262,,子育て支援施設,児童クラブ,城山児童クラブ,シロヤマジドウクラブ,,尾張旭市城山町城山13-1（尾張旭市立城山小学校内）,4880884,35.223464,137.028082,,城山児童クラブ,0561-53-6501,http://www.city.owariasahi.lg.jp/koukyousisetu/jido/015.html
232262,,子育て支援施設,児童クラブ,三郷児童クラブ,サンゴウジドウクラブ,,尾張旭市瀬戸川町一丁目122（尾張旭市立三郷小学校内）,4880023,35.211252,137.057132,,三郷児童クラブ,0561-51-3352,http://www.city.owariasahi.lg.jp/koukyousisetu/jido/016.html
232262,,子育て支援施設,児童クラブ,旭児童クラブ,アサヒジドウクラブ,,尾張旭市西の野町五丁目1（尾張旭市立旭小学校内）,4880804,35.21168,137.036854,,旭児童クラブ,0561-53-2230,http://www.city.owariasahi.lg.jp/koukyousisetu/jido/017.html
232262,,子育て支援施設,児童クラブ,東栄児童クラブ,トウエイジドウクラブ,,尾張旭市東栄町三丁目5-1（尾張旭市立東栄小学校内）,4880011,35.220085,137.053616,,東栄児童クラブ,0561-53-2977,http://www.city.owariasahi.lg.jp/koukyousisetu/jido/018.html
232262,,子育て支援施設,民間学童クラブ,あおぞら学童クラブ,アオゾラガクドウクラブ,,尾張旭市平子町長池上6387-3,4880872,35.222039,137.025549,,あおぞら学童クラブ,0561-54-5075,
232262,,子育て支援施設,民間学童クラブ,藤池学童クラブ,フジイケガクドウクラブ,,尾張旭市柏井町弥栄303,4880008,35.224191,137.053068,,藤池学童クラブ,0561-52-1603,
232262,,子育て支援施設,民間学童クラブ,はくほう学童クラブ,ハクホウガクドウクラブ,,尾張旭市印場元町四丁目2-11,4880840,35.209661,137.012981,,はくほう学童クラブ,0561-52-3673,
232262,,子育て支援施設,民間学童クラブ,あさひ学童クラブ,アサヒガクドウクラブ,,尾張旭市東大道町曽我廻間2269-5,4880802,35.213394,137.037672,,あさひ学童クラブ,0561-52-8049,
232262,,子育て支援施設,民間学童クラブ,ふぁんふぁん学童クラブ,ファンファンガクドウクラブ,,尾張旭市東栄町一丁目11-10,4880011,35.218388,137.051086,,ふぁんふぁん学童クラブ,0561-53-5919,
232262,,子育て支援施設,民間学童クラブ,nursery school friend,チビッコランドオワリアサヒエン,,尾張旭市大久手町中松原114-1,4880006,35.223126,137.047766,,nursery school friend,0561-52-6671,
232262,,子育て支援施設,,尾張旭市子育て支援センター,オワリアサヒシコソダテシエンセンター,,尾張旭市新居町明才切57,4880074,35.218637,137.034957,,尾張旭市子育て支援センター,0561-52-3132,
232262,,子育て支援施設,,はんのき子育て支援センター,ハンノキコソダテシエンセンター,,尾張旭市桜ヶ丘町二丁目217,4880859,35.215065,137.013656,,はんのき子育て支援センター,0561-55-7611,
232262,,子育て支援施設,,藤池子育て支援センター,フジイケコソダテシエンセンター,,尾張旭市東栄町一丁目9-1,4880011,35.219241,137.050083,,藤池子育て支援センター,0561-53-2860,
232262,,子育て支援施設,,茅ケ池子育て支援センター,チガイケコソダテシエンセンター,,尾張旭市城前町一丁目7-5,4880867,35.218812,137.024605,,茅ケ池子育て支援センター,0561-53-3989,
232262,,子育て支援施設,,東部子育て支援センター,トウブコソダテシエンセンター,,尾張旭市狩宿新町一丁目56,4880022,35.212539,137.059285,,東部子育て支援センター,0561-53-2265,
232262,,子育て支援施設,,川南子育て支援センター,カワミナミコソダテシエンセンター,,尾張旭市大塚町二丁目4-1,4880826,35.2007,137.018881,,川南子育て支援センター,052-771-9301,
232262,,子育て支援施設,,レイモンド庄中子育て支援センター,レイモンドショウナカコソダテシエンセンター,,尾張旭市庄中町一丁目2-8,4880838,35.207275,137.013008,,レイモンド庄中子育て支援センター,0561-76-0888,
232262,,子育て支援施設,,尾張旭市ファミリーサポートセンター,オワリアサヒシファミリーサポートセンター,,尾張旭市新居町明才切57,4880074,35.218637,137.034957,,尾張旭市ファミリーサポートセンター,0561-51-5571,
232262,,子育て支援施設,,こどもの発達センター　にこにこ,コドモノハッタツセンター　ニコニコ,,尾張旭市新居町明才切57,4880074,35.218637,137.034949,子どもの発達に関する不安や悩み、関わり方についての相談窓口です。,こどもの発達センター　にこにこ,0561-53-6103,http://www.city.owariasahi.lg.jp/kurasi/kosodate/sien/nikoniko.html
232262,,幼稚園,私立,旭富士幼稚園,アサヒフジヨウチエン,,尾張旭市旭ヶ丘町森８７,4880082,35.229989,137.048725,私立幼稚園です。,旭富士幼稚園,0561-53-5262,http://asahifujiyouchie.sakura.ne.jp/index.html
232262,,幼稚園,私立,愛英本地幼稚園,アイエイホンジホウチエン,,尾張旭市南本地ヶ原町１－２６,4880044,35.193924,137.032116,私立幼稚園です。,愛英本地幼稚園,0561-54-6311,http://www.matsunaga-gakuen.jp/
232262,,幼稚園,私立,しらぎく幼稚園,シラギクヨウチエン,,尾張旭市北本地ヶ原町３－３８,4880043,35.199234,137.038032,私立幼稚園です。,しらぎく幼稚園,0561-54-4790,http://www.siragiku.ac.jp/
232262,,幼稚園,私立,東春暁幼稚園,トウシュンアカツキヨウチエン,,尾張旭市旭前町４－６－１,4880855,35.212535,137.018145,私立幼稚園です。,東春暁幼稚園,0561-54-2423,http://www.tousyunakatuki.ed.jp/index.html
232262,,保育園,公立,東部保育園,トウブホイクエン,,尾張旭市狩宿新町１－５６,4880022,35.2125355,137.0592821,公立保育園です。,東部保育園,0561-53-2265,http://www.allfairy.com/
232262,,保育園,公立,中部保育園,チュウブホイクエン,,尾張旭市西大道町前田３７８６,4880814,35.21304,137.033921,公立保育園です。,中部保育園,0561-53-2254,http://www.city.owariasahi.lg.jp/kurasi/kosodate/hoiku/itiran/tyuubu.html
232262,,保育園,公立,西部保育園,セイブホイクエン,,尾張旭市印場元町５－１４－１０,4880840,35.2102301,137.01774,公立保育園です。,西部保育園,0561-53-2676,http://www.city.owariasahi.lg.jp/kurasi/kosodate/hoiku/itiran/seibu.html
232262,,保育園,公立,藤池保育園,フジイケホイクエン,,尾張旭市東栄町１－９－１,4880011,35.219232,137.050094,公立保育園です。,藤池保育園,0561-53-2860,http://www.city.owariasahi.lg.jp/kurasi/kosodate/hoiku/itiran/hujiike.html
232262,,保育園,公立,本地ヶ原保育園,ホンジガハラホイクエン,,尾張旭市北本地ヶ原町１－２１,4880043,35.197725,137.031648,公立保育園です。,本地ヶ原保育園,0561-53-3359,http://www.city.owariasahi.lg.jp/kurasi/kosodate/hoiku/itiran/honji.html
232262,,保育園,公立,茅ヶ池保育園,チガイケホイクエン,,尾張旭市城前町１－７－５,4880867,35.218803,137.024573,公立保育園です。,茅ヶ池保育園,0561-53-3989,http://www.nihonhoiku.co.jp/blog/chigaike/
232262,,保育園,公立,川南保育園,カワミナミホイクエン,,尾張旭市大塚町２－４－１,4880826,35.200682,137.01886,公立保育園です。,川南保育園,052-771-9301,http://www.city.owariasahi.lg.jp/kurasi/kosodate/hoiku/itiran/kawaminami.html
232262,,保育園,公立,西山保育園,ニシヤマホイクエン,,尾張旭市井田町２－１７５,4880024,35.21054,137.04802,公立保育園です。,西山保育園,0561-53-5788,http://www.city.owariasahi.lg.jp/kurasi/kosodate/hoiku/itiran/nisiyama.html
232262,,保育園,公立,あたご保育園,アタゴホイクエン,,尾張旭市新居町今池下２９１０－１,4880079,35.223545,137.040176,公立保育園です。,あたご保育園,0561-53-5758,http://www.city.owariasahi.lg.jp/kurasi/kosodate/hoiku/itiran/atago.html
232262,,保育園,公立,柏井保育園,カシワイホイクエン,,尾張旭市柏井町弥栄１６,4880008,35.226595,137.051686,公立保育園です。,柏井保育園,0561-54-3098,http://www.city.owariasahi.lg.jp/kurasi/kosodate/hoiku/itiran/kasiwai.html
232262,,保育園,公立,稲葉保育園,イナバホイクエン,,尾張旭市稲葉町１－４３,4880054,35.205375,137.032833,公立保育園です。,稲葉保育園,0561-54-0655,http://gakuen.kikutake.com/inabanewpage1.html
232262,,保育園,公立,はんのき保育園,ハンノキホイクエン,,尾張旭市桜ヶ丘町２－２１７,4880859,35.215065,137.013688,公立保育園です。,はんのき保育園,0561-55-7611,http://www.allfairy.com/
232262,,保育園,私立,あさひおっきい保育園,アサヒオッキイホイクエン,,尾張旭市平子町東１５７－１,4880871,35.228574,137.026938,私立保育園です。,あさひおっきい保育園,0561-54-2704,http://asahiokkii.net/
232262,,保育園,私立,保育所てんとう虫,ホイクジョテントウムシ,,尾張旭市新居町明才切２３－１,4880074,35.219332,137.037313,私立保育園です。,保育所てんとう虫,0561-52-2164,http://www.hoikujo-tentoumushi.com/
232262,,保育園,私立,レイモンド庄中保育園,レイモンドショウナカホイクエン,,尾張旭市庄中町１－２－８,4880838,35.207257,137.013019,私立保育園です。,レイモンド庄中保育園,0561-76-0888,http://www.lemonkai.or.jp/leimondshonaka/
232262,,保育園,小規模保育事業所,nursery school family,ナーサリ－スクールファミリー,,尾張旭市東栄町１－７－１８ピアプラザ横山ビルIII　１BC,4880011,35.219871,137.050902,小規模保育事業所です。,nursery school family,0561-76-7622,http://www.city.owariasahi.lg.jp/kurasi/kosodate/hoiku/itiran/family.html
232262,,保育園,小規模保育事業所,スクルドエンジェル保育園三郷園,スクルドエンジェルホイクエンサンゴウエン,,尾張旭市三郷町中井田２０２－１,4880014,35.215468,137.054267,小規模保育事業所です。,スクルドエンジェル保育園三郷園,0561-58-3636,http://sango.skuld-angel.com/
232262,,保育園,小規模保育事業所,あさひちいさないえほいくえん,アサヒチイサナイエホイクエン,,尾張旭市印場元町２－１０－７,4880840,35.210044,137.011201,小規模保育事業所です。,あさひちいさないえほいくえん,0561-59-5115,http://www.city.owariasahi.lg.jp/kurasi/kosodate/hoiku/itiran/tiisana.html
232262,,保育園,小規模保育事業所,memorytree旭保育園,メモリーツリーアサヒホイクエン,,尾張旭市向町２－６－１サニーハイツ尾張旭１Ｆ,4880818,35.213971,137.031348,小規模保育事業所です。,memorytree旭保育園,0561-76-3288,http://memorytree-cocolino.com/asahi_top.htm
232262,,保育園,認可外保育施設,nursery school friend,ナーサリ－スクールフレンド,,尾張旭市大久手町中松原１１４－１,4880006,35.223117,137.047806,認可外保育施設です。,nursery school friend,0561-52-6671,http://www.city.owariasahi.lg.jp/kurasi/kosodate/hoiku/ninkagai.html
232262,,保育園,認可外保育施設,保育ルーム　ルチェーレ,ホイクルーム　ルチェーレ,,尾張旭市東三郷町３１８,4880017,35.213316,137.057766,認可外保育施設です。,保育ルーム　ルチェーレ,0561-58-9114,https://ameblo.jp/lucere35yi/
232262,,病児・病後児保育施設,,あらかわ医院,アラカワイイン,,尾張旭市大久手町中松原３９,4880006,35.223973,137.048028,病児・病後児保育施設です。,医療法人あらかわ医院,0561--53-9666,http://arakawa-cl.com/
23229,,児童館,公立,コスモス児童館,コスモスジドウカン,,愛知県豊明市新田町南山８２,4701112,35.047706,137.014112,,コスモス児童館,0562-95-2529,
23229,,児童館,公立,二村児童館,フタムラジドウカン,,愛知県豊明市西川町横井４－１３,4701121,35.061679,137.007389,,二村児童館,0562-92-3465,
23229,,児童館,公立,大宮児童館,オオミヤジドウカン,,愛知県豊明市前後町宮前１４８７－９,4701151,35.058723,136.993329,,大宮児童館,0562-93-8808,
23229,,児童館,公立,南部児童館,ナンブジドウカン,,愛知県豊明市栄町山ノ田１１２,4701161,35.046638,136.997535,,南部児童館,0562-97-7575,
23229,,児童館,公立,ひまわり児童館,ヒマワリジドウカン,,愛知県豊明市栄町上姥子３－２１３,4701162,35.052412,136.992993,,ひまわり児童館,0562-97-4331,
23229,,児童館,公立,西部児童館,セイブジドウカン,,愛知県豊明市栄町南舘３１６－２,4701168,35.052559,136.981128,,西部児童館,0562-98-2200,
23229,,児童館,公立,中央児童館,チュウオウジドウカン,,愛知県豊明市西川町笹原２６－１,4701123,35.059454,137.012158,,中央児童館,0562-93-6601,
23229,,児童館,公立,北部児童館,ホクブジドウカン,,愛知県豊明市沓掛町泉１５３－４,4701107,35.057942,137.029249,,北部児童館,0562-92-3337,
23229,,児童クラブ,公立,コスモス児童クラブ,コスモスジドウクラブ,,愛知県豊明市新田町南山８２,4701112,35.047706,137.014112,,コスモス児童館,0562-95-2529,
23229,,児童クラブ,公立,二村児童クラブ,フタムラジドウクラブ,,愛知県豊明市西川町横井４－１３,4701121,35.061679,137.007389,,二村児童館,0562-92-3465,
23229,,児童クラブ,公立,大宮児童クラブ,オオミヤジドウクラブ,,愛知県豊明市前後町宮前１４８７－９,4701151,35.058723,136.993329,,大宮児童館,0562-93-8808,
23229,,児童クラブ,公立,南部児童クラブ,ナンブジドウクラブ,,愛知県豊明市栄町山ノ田１１２,4701161,35.046638,136.997535,,南部児童館,0562-97-7575,
23229,,児童クラブ,公立,ひまわり児童クラブ,ヒマワリジドウクラブ,,愛知県豊明市栄町上姥子３－２１３,4701162,35.052412,136.992993,,ひまわり児童館,0562-97-4331,
23229,,児童クラブ,公立,西部児童クラブ,セイブジドウクラブ,,愛知県豊明市栄町南舘３１６－２,4701168,35.052559,136.981128,,西部児童館,0562-98-2200,
23229,,児童クラブ,公立,双峰児童クラブ,ソウホウジドウクラブ,,愛知県豊明市二村台７丁目３,4701131,35.068645,137.007522,,双峰児童クラブ,0562-95-3313,
23229,,児童クラブ,公立,北部児童クラブ,ホクブジドウクラブ,,愛知県豊明市沓掛町一之御前１６,4701101,35.068343,137.026581,,北部児童クラブ,0562-92-0828,
23229,,児童クラブ,公立,唐竹児童クラブ,カラタケジドウクラブ,,愛知県豊明市二村台１丁目２７,4701131,35.062628,137.002398,,唐竹児童クラブ,0562-93-1661,
23229,,母子通園施設,公立,どんぐり学園,ドングリガクエン,,愛知県豊明市西川町長田１６－８,4701122,35.061029,137.014321,,どんぐり学園,0562-92-6218,
23229,,保育所,公立,沓掛保育園,クツカケホイクエン,,愛知県豊明市沓掛町森元４,4701101,35.067928,137.018929,,児童福祉課,0562-92-0465,
23229,,保育所,公立,青い鳥保育園,アオイトリホイクエン,,愛知県豊明市三崎町高鴨１－１,4701126,35.05479,137.005006,,児童福祉課,0562-92-6666,
23229,,保育所,公立,二村台保育園,フタムラダイホイクエン,,愛知県豊明市二村台３丁目１－１,4701131,35.064166,137.006534,,児童福祉課,0562-92-1500,
23229,,保育所,公立,舘保育園,ヤカタホイクエン,,愛知県豊明市栄町西大根30-273,4701167,35.053678,136.977533,,児童福祉課,0562-97-0800,
23229,,保育所,公立,中部保育園,チュウブホイクエン,,愛知県豊明市新田町門先10-10,4701112,35.051858,137.018471,,児童福祉課,0562-92-7667,
23229,,保育所,公立,内山保育園,ウチヤマホイクエン,,愛知県豊明市栄町内山67-5,4701165,35.047726,136.99061,,児童福祉課,0562-97-6336,
23229,,保育所,公立,東部保育園,トウブホイクエン,,愛知県豊明市沓掛町柿ノ木3,4701101,35.065907,137.031738,,児童福祉課,0562-93-1231,
23229,,保育所,公立,栄保育園,サカエホイクエン,,愛知県豊明市新栄町二丁目333,4701154,35.054595,136.987697,,児童福祉課,0562-97-1900,
23229,,保育所,公立,南部保育園,ナンブホイクエン,,愛知県豊明市栄町坂畑100,4701161,35.049868,136.99804,,児童福祉課,0562-97-2811,
23229,,保育所,公立,西部保育園,セイブホイクエン,,愛知県豊明市間米町鶴根1212-66,4701133,35.063392,136.994704,,児童福祉課,0562-93-7781,
23229,,保育所,私立,むつみ保育園,ムツミホイクエン,,愛知県豊明市阿野町西ノ海戸19-2,4701141,35.042608,137.008347,,児童福祉課,0562-92-0137,
23229,,保育所,私立,からたけ保育園,カラタケホイクエン,,愛知県豊明市間米町唐竹368-7,4701132,35.06675,137.005308,,児童福祉課,0562-93-3737,
23229,,保育所,私立,マミーナ保育園,マミーナホイクエン,,愛知県豊明市新栄町三丁目308,4701154,35.05497,136.986566,,児童福祉課,0562-98-1116,
23229,,小規模保育事業所,私立,メモリーツリー三崎保育園,メモリーツリーミサキホイクエン,,愛知県豊明市三崎町中ノ坪21-10,4701125,35.054724,137.008531,,児童福祉課,0562-51-6192,
23229,,小規模保育事業所,私立,豊明学園ひまわり,トヨアケガクエンヒマワリ,,愛知県豊明市沓掛町山新田10-15,4701101,35.088682,137.017292,,児童福祉課,0562-92-3121,
23229,,小規模保育事業所,私立,豊明なかよし保育園,トヨアケナカヨシホイクエン,,愛知県豊明市大久伝町西53-10,4701111,35.053502,137.021743,,児童福祉課,0562-92-7826,
23230,CKS001,子育て支援施設,休日急病診療所,休日急病診療所,キュウジツキュウビョウシンリョウジョ,,愛知県日進市蟹甲町中島22(中央福祉センター内),4700122,35.132795,137.042009,日進市中央福祉センター内にある休日急病診療所です。,休日急病診療所,0561-73-7555,http://www.city.nisshin.lg.jp/fukushi/hoken/kyuusinn.html
23230,CKS002,子育て支援施設,児童館,西部福祉会館,セイブフクシカイカン,,愛知県日進市赤池町下郷222,4700126,35.12599221,137.0147748,乳幼児室、学習室があります。,西部福祉会館,052-803-5286,http://www.city.nisshin.lg.jp/shisetsu/kenkofukushi/seibufukushikaikan.html
23230,CKS003,子育て支援施設,児童館,北部福祉会館,ホクブフクシカイカン,,愛知県日進市岩崎町大塚1034,4700131,35.14330932,137.0432002,ティーンズスペース、図書コーナー、学習室があります。,北部福祉会館,0561-73-0183,http://www.city.nisshin.lg.jp/shisetsu/kenkofukushi/hokubufukushikaikan.html
23230,CKS004,子育て支援施設,児童館,東部福祉会館,トウブフクシカイカン,,愛知県日進市米野木町仲田35-23,4700111,35.13311228,137.0615677,遊戯室・図書室があります。,東部福祉会館,0561-73-7881,http://www.city.nisshin.lg.jp/shisetsu/kenkofukushi/tfukushikaikan.html
23230,CKS005,子育て支援施設,児童館,南部福祉会館,ナンブフクシカイカン,,愛知県日進市折戸町寺脇123-6,4700115,35.1230686,137.0453151,遊戯室・図書室があります。,南部福祉会館,0561-73-8155,http://www.city.nisshin.lg.jp/shisetsu/kenkofukushi/nfukushikaikan.html
23230,CKS006,子育て支援施設,児童館,岩崎台・香久山福祉会館,イワサキダイ・カグヤマフクシカイカン,,愛知県日進市香久山四丁目201-14,4700134,35.14400373,137.028919,遊戯室・図書室があります。,岩崎台・香久山福祉会館,052-800-6601,http://www.city.nisshin.lg.jp/shisetsu/kenkofukushi/ikfukushikaikan.html
23230,CKS007,子育て支援施設,児童館,相野山福祉会館,アイノヤマフクシカイカン,,愛知県日進市北新町二段場920-8,4700103,35.15638253,137.0573873,遊戯室・図書室があります。,相野山福祉会館,0561-72-8122,http://www.city.nisshin.lg.jp/shisetsu/kenkofukushi/afukushikaikan.html
23230,CKS008,子育て支援施設,子育て支援拠点,にっしん子育て総合支援センター,ニッシンコソダテソウゴウシエンセンター,,愛知県日進市栄四丁目1002-2,4700113,35.12037816,137.0546242,地域に住む就学前の子どもと保護者を対象とした子育て支援施設です。,にっしん子育て総合支援センター,0561-75-2244,http://www.npo-rin.org/nkosodate/
23230,CKS009,子育て支援施設,子育て支援拠点,子育て支援センター（日東保育園内）,コソダテシエンセンター（ニットウホイクエンナイ）,,愛知県日進市藤島町寺下乙29,4700102,35.13920733,137.0480547,地域に住む就学前の子どもと保護者を対象とした子育て支援施設です。,子育て支援センター（日東保育園内）,0561-72-0459,http://www.nitto-hoikuen.com/contents/kosodate2.html
23230,CKS010,子育て支援施設,子育て支援拠点,子育て支援センター（名古屋学芸大学子どもケアセンター内）,コソダテシエンセンター（ナゴヤガクゲイダイガクコドモケアセンターナイ）,,愛知県日進市岩崎町竹ノ山57,4700196,35.158123,137.038797,地域に住む就学前の子どもと保護者を対象とした子育て支援施設です。,子育て支援センター（名古屋学芸大学子どもケアセンター内）,0561-75-2225,https://www.nuas.ac.jp/ccc/
23230,CKS011,子育て支援施設,相互援助,にっしんファミリー・サポート・センター,ニッシンファミリー・サポート・センター,,愛知県日進市栄四丁目1002-2（にっしん子育て総合支援センター内）,4700113,35.120444,137.054517,育児の援助を行いたい人と援助を受けたい人が会員となり、相互援助活動を行うための組織です。,にっしんファミリー・サポート・センター,0561-74-6262,http://www.npo-rin.org/nkosodate/famisapo/famisapo_index.htm
23230,CKS012,子育て支援施設,民間児童クラブ,ハレルヤ第１こども園,ハレルヤダイイチコドモエン,,愛知県日進市折戸町定納22-1,4700115,35.12659,137.036448,民間児童クラブです。全小学区を対象にしています。,ハレルヤこども園,0561-73-9590,
23230,CKS013,子育て支援施設,民間児童クラブ,ハレルヤ第２こども園,ハレルヤダイニコドモエン,,愛知県日進市折戸町定納21,4700115,35.126733,137.036746,民間児童クラブです。全小学区を対象にしています。,ハレルヤこども園,0561-73-9590,
23230,CKS014,子育て支援施設,民間児童クラブ,マミーベア放課後児童クラブ,マミーベアホウカゴジドウクラブ,,愛知県日進市赤池一丁目2004　K’Sスペース赤池203,4700125,35.120929,137.014895,民間児童クラブです。全小学区を対象にしています。,株式会社Bears,052-801-2550,http://www.mammy-bear.jp/facility/jidou.html
23230,CKS015,子育て支援施設,民間児童クラブ,わせだ放課後児童クラブ,ワセダホウカゴジドウクラブ,,愛知県日進市赤池一丁目1505　鬼頭シャトレー1階,4700125,35.121166,137.01741,民間児童クラブです。全小学区を対象にしています。,有限会社ワセダシステム,052-805-0755,
23230,CKS016,子育て支援施設,民間児童クラブ,放課後児童クラブ　キッズデイズ香久山,ホウカゴジドウクラブ　キッズデイズカグヤマ,,愛知県日進市香久山二丁目1603　セントラル香久山1階,4700134,35.141951,137.026201,民間児童クラブです。全小学区を対象にしています。,一般社団法人　みらい学びクリエイト,052-893-9219,https://www.miraimanabi.com/
23230,CKS017,子育て支援施設,民間児童クラブ,放課後児童クラブ　キッズデイズ浅田,ホウカゴジドウクラブ　キッズデイズアサダ,,愛知県日進市浅田町森下117-3,4700124,35.128928,137.025229,民間児童クラブです。全小学区を対象にしています。,一般社団法人　みらい学びクリエイト,052-893-9219,https://www.miraimanabi.com/
23230,CKS018,子育て支援施設,民間児童クラブ,リーベルツリーハウス,リーベルツリーハウス,,愛知県日進市岩崎台一丁目1416,4700135,35.146314,137.022122,民間児童クラブです。全小学区を対象にしています。,株式会社　グローバルサポート,0561-56-1345,http://www.libertree.jp/index.html
23230,CKS019,子育て支援施設,民間児童クラブ,にしっこクラブ,ニシッコクラブ,,愛知県日進市浅田町上納58-4,4700124,35.12619506,137.0338244,民間児童クラブです。西小学区を対象にしています。,NPO法人LIBERAS,0561-73-3715,http://liberas.net/index.php?FrontPage
23230,CKS020,子育て支援施設,民間児童クラブ,こめっこクラブ,コメッコクラブ,,愛知県日進市米野木町仲田35-23,4700111,35.132706,137.061433,民間児童クラブです。東小学区を対象にしています。,NPO法人LIBERAS,0561-73-3715,http://liberas.net/index.php?FrontPage
23230,CKS021,子育て支援施設,民間児童クラブ,さくらんぼクラブ,サクランボクラブ,,愛知県日進市米野木町仲田35（東部保育園内）,4700111,35.133314,137.060678,民間児童クラブです。東小学区を対象にしています。,NPO法人LIBERAS,0561-73-3715,http://liberas.net/index.php?FrontPage
23230,CKS022,子育て支援施設,民間児童クラブ,きたっこクラブ,キタッコクラブ,,愛知県日進市岩崎町元井ゲ17-172,4700131,35.149794,137.046583,民間児童クラブです。北小学区を対象にしています。,NPO法人LIBERAS,0561-73-3715,http://liberas.net/index.php?FrontPage
23230,CKS023,子育て支援施設,民間児童クラブ,かにっこクラブ,カニッコクラブ,,愛知県日進市折戸町笠寺山37-1,4700115,35.12903741,137.0430943,民間児童クラブです。南小学区を対象にしています。,NPO法人LIBERAS,0561-73-3715,http://liberas.net/index.php?FrontPage
23230,CKS024,子育て支援施設,民間児童クラブ,のびのびクラブ,ノビノビクラブ,,愛知県日進市北新町二段場920-8　（相野山福祉会館内）,4700103,35.15638253,137.0573873,民間児童クラブです。相野山小学区を対象にしています。,NPO法人LIBERAS,0561-73-3715,http://liberas.net/index.php?FrontPage
23230,CKS025,子育て支援施設,民間児童クラブ,そよかぜクラブ,ソヨカゼクラブ,,愛知県日進市香久山四丁目201-14　（岩崎台・香久山福祉会館敷地内）,4700134,35.144349,137.028552,民間児童クラブです。香久山小学区を対象にしています。,NPO法人LIBERAS,0561-73-3715,http://liberas.net/index.php?FrontPage
23230,CKS026,子育て支援施設,民間児童クラブ,ほしのこクラブ,ホシノコクラブ,,愛知県日進市折戸町梨子ノ木28-31　（梨の木小学校内）,4700115,35.12058249,137.0567591,民間児童クラブです。梨の木小学区を対象にしています。,NPO法人LIBERAS,0561-73-3715,http://liberas.net/index.php?FrontPage
23230,CKS027,子育て支援施設,民間児童クラブ,にじのこクラブ,ニジノコクラブ,,愛知県日進市折戸町梨子ノ木28-32　（梨の木小学校内）,4700115,35.120964,137.057111,民間児童クラブです。梨の木小学区を対象にしています。,NPO法人LIBERAS,0561-73-3715,http://liberas.net/index.php?FrontPage
23230,CKS028,子育て支援施設,民間児童クラブ,どんぐりクラブ,ドングリクラブ,,愛知県日進市赤池町下郷208　（旧むつみ会館）,4700126,35.126861,137.013942,民間児童クラブです。赤池小学区を対象にしています。,NPO法人LIBERAS,0561-73-3715,http://liberas.net/index.php?FrontPage
23230,CKS029,子育て支援施設,民間児童クラブ,たけのこクラブ,タケノコクラブ,,愛知県日進市竹の山四丁目502　（竹の山小学校内）,4700136,35.15280169,137.0330097,民間児童クラブです。竹の山小学区を対象にしています。,NPO法人LIBERAS,0561-73-3715,http://liberas.net/index.php?FrontPage
23230,CKS030,子育て支援施設,放課後子ども総合プラン,にし放課後子ども教室・にし児童クラブ,ニシホウカゴコドモキョウシツ・ニシジドウクラブ,,愛知県日進市浅田町東田面76（西小学校 敷地内専用施設）,4700124,35.12856343,137.0290444,西小学区を対象にした放課後子ども総合プラン事業です。,にし放課後子ども教室・にし児童クラブ,080-6984-5453,http://www.city.nisshin.lg.jp/fukushi/kosodate/021174.html
23230,CKS031,子育て支援施設,放課後子ども総合プラン,ひがし放課後子ども教室・ひがし児童クラブ,ヒガシホウカゴコドモキョウシツ・ヒガシジドウクラブ,,愛知県日進市米野木町北畑8-3（東小学校北校舎1階第2図工室） ,4700111,35.13763524,137.0642128,東小学区を対象にした放課後子ども総合プラン事業です。,ひがし放課後子ども教室・ひがし児童クラブ,080-6990-1492,http://www.city.nisshin.lg.jp/fukushi/kosodate/021174.html
23230,CKS032,子育て支援施設,放課後子ども総合プラン,きた放課後子ども教室・きた児童クラブ,キタホウカゴコドモキョウシツ・キタジドウクラブ,,愛知県日進市岩崎町芝内2-1（北小学校 北校舎3階 専用教室）,4700131,35.1495162,137.0483799,北小学区を対象にした放課後子ども総合プラン事業です。,きた放課後子ども教室・きた児童クラブ,080-6984-5454 ,http://www.city.nisshin.lg.jp/fukushi/kosodate/021174.html
23230,CKS033,子育て支援施設,放課後子ども総合プラン,みなみ放課後子ども教室・みなみ児童クラブ,ミナミホウカゴコドモキョウシツ・ミナミジドウクラブ,,愛知県日進市折戸町中屋敷70-3（南小学校 敷地内専用施設）,4700115,35.12431582,137.0451933,南小学区を対象にした放課後子ども総合プラン事業です。,みなみ放課後子ども教室・みなみ児童クラブ,0561-74-2755,http://www.city.nisshin.lg.jp/fukushi/kosodate/021174.html
23230,CKS034,子育て支援施設,放課後子ども総合プラン,あいのやま放課後子ども教室・あいのやま児童クラブ,アイノヤマホウカゴコドモキョウシツ・アイノヤマジドウクラブ,,愛知県日進市北新町相野山1331-3（相野山小学校 北校舎1階専用教室）,4700103,35.15281662,137.0593507,相野山小学区を対象にした放課後子ども総合プラン事業です。,あいのやま放課後子ども教室・あいのやま児童クラブ,080-5811-5950,http://www.city.nisshin.lg.jp/fukushi/kosodate/021174.html
23230,CKS035,子育て支援施設,放課後子ども総合プラン,かぐやま放課後子ども教室・かぐやま児童クラブ,カグヤマホウカゴコドモキョウシツ・カグヤマジドウクラブ,,愛知県日進市香久山五丁目1701（香久山小学校 北校舎3階多目的教室）,4700134,35.14233446,137.0285551,香久山小学区を対象にした放課後子ども総合プラン事業です。,かぐやま放課後子ども教室・かぐやま児童クラブ,080-5169-4268,http://www.city.nisshin.lg.jp/fukushi/kosodate/021174.html
23230,CKS036,子育て支援施設,放課後子ども総合プラン,なしのき放課後子ども教室・なしのき児童クラブ,ナシノキホウカゴコドモキョウシツ・ナシノキジドウクラブ,,愛知県日進市折戸町梨子ノ木28-31（梨の木小学校 校舎1階北側ランチルーム）,4700115,35.12080043,137.0572255,梨の木小学区をを対象にした放課後子ども総合プラン事業です。,なしのき放課後子ども教室・なしのき児童クラブ,080-5169-4271,http://www.city.nisshin.lg.jp/fukushi/kosodate/021174.html
23230,CKS037,子育て支援施設,放課後子ども総合プラン,あかいけ放課後子ども教室・あかいけ児童クラブ,アカイケホウカゴコドモキョウシツ・アカイケジドウクラブ,,愛知県日進市赤池三丁目2101（赤池小学校 校舎1階北側専用教室）,4700125,35.11844198,137.0168697,赤池小学区を対象にした放課後子ども総合プラン事業です。,あかいけ放課後子ども教室・あかいけ児童クラブ,080-6965-5522,http://www.city.nisshin.lg.jp/fukushi/kosodate/021174.html
23230,CKS038,子育て支援施設,放課後子ども総合プラン,たけのやま放課後子ども教室・たけのやま児童クラブ,タケノヤマホウカゴコドモキョウシツ・タケノヤマジドウクラブ,,愛知県日進市竹の山四丁目502（竹の山小学校 校舎1階専用教室 ）,4700136,35.15280169,137.0330097,竹の山小学区を対象にした放課後子ども総合プラン事業です。,たけのやま放課後子ども教室・たけのやま児童クラブ,080-6985-8714,http://www.city.nisshin.lg.jp/fukushi/kosodate/021174.html
23230,CSY001,幼稚園,私立,はくさん幼稚園,ハクサンヨウチエン,,愛知県日進市藤枝町西外面35,4700112,35.133499,137.049017,私立幼稚園です。,はくさん幼稚園,0561-72-1395,http://www.hakusan-jp.com/
23230,CSY002,幼稚園,私立,和合あかつき幼稚園,ワゴウアカツキヨウチエン,,愛知県日進市南ケ丘二丁目1-14,4700114,35.112634,137.040995,私立幼稚園です。,和合あかつき幼稚園,0561-72-2281,http://www.akatsuki.ac.jp/page0117.html
23230,CSY003,幼稚園,私立,日進旭丘幼稚園,ニッシンアサヒガオカヨウチエン,,愛知県日進市野方町西島170-1,4700123,35.130486,137.029291,私立幼稚園です。,日進旭丘幼稚園,0561-73-1310,http://www.morikawagakuen.jp/nisshin/
23230,CSY004,幼稚園,私立,ハイランド白山幼稚園,ハイランドハクサンヨウチエン,,愛知県日進市五色園四丁目2801,4700105,35.154203,137.057983,私立幼稚園です。,ハイランド白山幼稚園,0561-73-1562,http://www.hakusan-jp.com/
23230,CSY005,幼稚園,私立,日進ベタニヤ幼稚園,ニッシンベタニヤヨウチエン,,愛知県日進市岩崎町石兼37,4700131,35.146461,137.031004,私立幼稚園です。,日進ベタニヤ幼稚園,0561-73-5323,https://church.ne.jp/bethany/kid/
23230,CSY006,幼稚園,私立,香久山幼稚園,カグヤマヨウチエン,,愛知県日進市香久山一丁目1701,4700134,35.137878,137.028602,私立幼稚園です。,香久山幼稚園,052-803-2111,http://kaguyama.ueda-gakuen.ed.jp/
23230,CKH001,保育園,公立,西部保育園,セイブホイクエン,,愛知県日進市赤池三丁目1403,4700125,35.11935799,137.0169774,公立保育園です。,西部保育園,052-802-1969,http://www.city.nisshin.lg.jp/shisetsu/hoikuen/h1201.html
23230,CKH002,保育園,公立,北部保育園,ホクブホイクエン,,愛知県日進市竹の山四丁目504,4700136,35.15057777,137.0343697,公立保育園です。,北部保育園,0561-72-3731,http://www.city.nisshin.lg.jp/shisetsu/hoikuen/h1202.html
23230,CKH003,保育園,公立,中部保育園,チュウブホイクエン,,愛知県日進市浅田町平池35,4700124,35.12832766,137.0244809,公立保育園です。,中部保育園,052-802-2859,http://www.city.nisshin.lg.jp/shisetsu/hoikuen/h1203.html
23230,CKH004,保育園,公立,新ラ田保育園,アラタホイクエン,,愛知県日進市岩崎町新ラ田93-1,4700131,35.14260748,137.0338518,公立保育園です。,新ラ田保育園,0561-73-3021,http://www.city.nisshin.lg.jp/shisetsu/hoikuen/h1204.html
23230,CKH005,保育園,公立,東部保育園,トウブホイクエン,,愛知県日進市米野木町仲田35-14,4700111,35.13289428,137.060704,公立保育園です。,東部保育園,0561-73-3163,http://www.city.nisshin.lg.jp/shisetsu/hoikuen/h1205.html
23230,CKH006,保育園,公立,南部保育園,ナンブホイクエン,,愛知県日進市折戸町孫三ヶ入29,4700115,35.12043302,137.0450402,公立保育園です。,南部保育園,0561-73－1561,http://www.city.nisshin.lg.jp/shisetsu/hoikuen/h1206.html
23230,CKH007,保育園,公立,梅森保育園,ウメモリホイクエン,,愛知県日進市梅森町上松288-3,4700132,35.13453646,137.0217694,公立保育園です。,梅森保育園,052-803-3134,http://www.city.nisshin.lg.jp/shisetsu/hoikuen/h1207.html
23230,CKH008,保育園,公立,三本木保育園,サンボンギホイクエン,,愛知県日進市三本木町上川田9,4700101,35.14255407,137.0818956,公立保育園です。,三本木保育園,0561-73-7876,http://www.city.nisshin.lg.jp/shisetsu/hoikuen/h1208.html
23230,CKH009,保育園,公立,北新田保育園,キタシンデンホイクエン,,愛知県日進市北新町殿ヶ池中40,4700103,35.15781742,137.0549719,公立保育園です。,北新田保育園,0561-73-7866,http://www.city.nisshin.lg.jp/shisetsu/hoikuen/h1209.html
23230,CKH010,保育園,公立,米野木台西保育園,コメノキダイニシホイクエン,,愛知県日進市藤枝町廻間1-1,4700112,35.12325752,137.0598465,公立保育園です。,米野木台西保育園,0561-75-5900,http://www.city.nisshin.lg.jp/shisetsu/hoikuen/h1210.html
23230,CSH001,保育園,私立,日東保育園,ニットウホイクエン,,愛知県日進市藤島町寺下乙29,4700102,35.139288,137.04779,私立保育園です。,日東保育園,0561-72-0459,http://www.nitto-hoikuen.com/
23230,CSH002,保育園,私立,あかいけ屋下保育園,アカイケヤシタホイクエン,,愛知県日進市赤池町屋下348,4700126,35.124981,137.009913,私立保育園です。,あかいけ屋下保育園,052-800-2155,http://jyuroukai.main.jp/yashita/hoikuen_index.html
23230,CSH003,保育園,私立,香久山保育園,カグヤマホイクエン,,愛知県日進市香久山一丁目1701,4700134,35.13787,137.02861,私立保育園です。,香久山保育園,052-800-2211,http://kaguyama.ueda-gakuen.ed.jp/
23230,CSH004,保育園,私立,日進めばえ保育園,ニッシンメバエホイクエン,,愛知県日進市折戸町笠寺山62-162,4700115,35.126463,137.040477,私立保育園です。,日進めばえ保育園,0561-56-0377,http://mebaehoikuen.sakura.ne.jp/
23230,CNT001,保育園,認定こども園,キッズツリーハウス認定こども園竹の山,キッズツリーハウスニンテイコドモエンタケノヤマ,,愛知県日進市竹の山四丁目2720,4700136,35.155426,137.026246,認定こども園です。,キッズツリーハウス認定こども園竹の山,0561-73-8250,http://www.kidstreehouse.jp/
23230,CNT002,保育園,認定こども園,愛知国際プリスクール,アイチコクサイプリスクール,,愛知県日進市折戸町梨子ノ木46,4700115,35.121893,137.059091,認定こども園です。,愛知国際プリスクール,0561-56-6600,http://aichi-kokusaigakuen.jp/preschool/
23230,CSK001,保育園,小規模保育事業所,マミーベア保育園あかいけ,マミーベアホイクエンアカイケ,,愛知県日進市赤池一丁目2004 K'sｽﾍﾟｰｽ赤池1F,4700125,35.120929,137.014895,小規模保育事業所です。,マミーベア保育園あかいけ,052-801-2550,http://www.mammy-bear.jp/facility/akaike.html
23230,CSK002,保育園,小規模保育事業所,たんぽぽ保育園,タンポポホイクエン,,愛知県日進市梅森台二丁目229,4700133,35.135156,137.015431,小規模保育事業所です。,たんぽぽ保育園,052-807-3796,http://niconico-tanpopo.com/
23230,CSK003,保育園,小規模保育事業所,ル クール保育園,ル　クールホイクエン,,愛知県日進市竹の山四丁目705 ﾊﾞﾝｸｰﾊﾞｰ1100 101号,4700136,35.162127,137.040706,小規模保育事業所です。,ル クール保育園,0561-76-4202,https://ru-ku-ru.jimdo.com/
23230,CNG001,保育園,認可外保育施設,ベビールームポッポ,ベビールームポッポ,,愛知県日進市岩崎町市場53,4700131,35.144705,137.04225,認可外保育施設です。,ベビールームポッポ,0561-72-1433,http://www.mb.ccnw.ne.jp/poppo-wn/
23230,CNG002,保育園,認可外保育施設,ｍｅｍｏｒｙ　ｔｒｅｅ 赤池保育園,メモリーツリーアカイケホイクエン,,愛知県日進市赤池五丁目1602,4700125,35.120986,137.011313,認可外保育施設です。,memory tree 赤池保育園,052-853-9697,http://memorytree-cocolino.com/nursery_top.htm
23230,CNG003,保育園,認可外保育施設,たんぽぽ保育園　かぐやま,タンポポホイクエンカグヤマ,,愛知県日進市岩崎町石兼73-4,4700131,35.146756,137.02831,認可外保育施設です。,たんぽぽ保育園　かぐやま,0561-72-3722,http://niconico-tanpopo.com/
23230,CNG004,保育園,認可外保育施設,kidsオリーブ,キッズオリーブ,,愛知県日進市浅田町西前田33-5,4700124,35.125578,137.02198,認可外保育施設です。,kidsオリーブ,052-807-5311,http://www.kids-olive.com/
23230,CNG005,保育園,認可外保育施設,マミーベア保育園 あかいけにし,マミーベアホイクエンアカイケニシ,,愛知県日進市赤池五丁目1218 NKビル2階,4700125,35.121019,137.014107,認可外保育施設です。,マミーベア保育園 あかいけにし,052-804-7866,http://www.mammy-bear.jp/facility/akaike-w.html
23230,CNG006,保育園,認可外保育施設,チャイルドマインダー　うみいろ・そらいろ,チャイルドマインダーウミイロソライロ,,愛知県日進市香久山三丁目616,4700134,35.143604,137.022126,認可外保育施設です。,チャイルドマインダー　うみいろ・そらいろ,052-804-8806,http://www.umiiro-sorairo.com/
23230,CNG007,保育園,認可外保育施設,ｍｅｍｏｒｙ　ｔｒｅｅ　梅森台保育園,メモリーツリーウメモリダイホイクエン,,愛知県日進市梅森台二丁目216 ﾈｲﾃｨﾌﾞﾌﾟﾚｰｽ梅森1F,4700133,35.134259,137.015121,認可外保育施設です。,memory tree 梅森台保育園,052-746-1778,http://memorytree-cocolino.com/umemoridai_top.htm
23230,OTH001,病児・病後児保育施設,,日進おりど病院,ニッシンオリドビョウイン,,愛知県日進市折戸町西田面110,4700115,35.123351,137.041193,病児・病後児保育施設です。,日進おりど病院,0561-65-5020,http://www.city.nisshin.lg.jp/fukushi/kosodate/byouji_hoiku.html
23230,OTH002,児童発達支援センター,,日進市子ども発達支援センターすくすく園,ニッシンシコドモハッタツシエンセンタースクスクエン,すくすく園,愛知県日進市竹の山四丁目301,4700136,35.15201565,137.0343415,障害又はその疑いのある就学前児童が通う公立通所施設です。,日進市子ども発達支援センター すくすく園,0561-74-5939,http://nisshin-shakyo.or.jp/welfarecenter/sukusukuen/
23236,,子育て支援施設,子育て総合支援センター,子育て総合支援センター,コソダテソウゴウシエンセンター,,愛知県みよし市西陣取山130,4700224,35.08751,137.07651,,子育て総合支援センター,0561-34-0500,
23236,,子育て支援施設,保育園,莇生保育園,アザブホイクエン,,愛知県みよし市莇生町仲田48-1,4700206,35.101856,137.09834,,莇生保育園,0561-34-7557,
23236,,子育て支援施設,保育園,天王保育園,テンノウホイクエン,,愛知県みよし市三好町天王51-20,4700224,35.090052,137.084972,,天王保育園,0561-32-2346,
23236,,子育て支援施設,保育園,なかよし保育園,ナカヨシホイクエン,,愛知県みよし市西一色町二ノ沢8-2,4700226,35.08072,137.054592,,なかよし保育園,0561-32-3048,
23236,,子育て支援施設,保育園,みどり保育園,ミドリホイクエン,,愛知県みよし市三好丘桜四丁目11-1,4700204,35.114614,137.116991,,みどり保育園,0561-36-3330,
23236,,子育て支援施設,保育園,打越保育園,ウチコシホイクエン,,愛知県みよし市打越町畦違311,4700213,35.078884,137.0934,,打越保育園,0561-34-0123,
23236,,子育て支援施設,保育園,城山保育園,シロヤマホイクエン,,愛知県みよし市福谷町市場61-2,4700207,35.113686,137.100256,,城山保育園,0561-36-3310,
23236,,子育て支援施設,保育園,明知保育園,ミョウチホイクエン,,愛知県みよし市明知町細口浦41,4700214,35.064738,137.084318,,明知保育園,0561-32-1035,
23236,,子育て支援施設,保育園,すみれ保育園,スミレホイクエン,,愛知県みよし市三好町八和田108,4700224,35.086866,137.068718,,すみれ保育園,0561-34-3123,
23236,,子育て支援施設,保育園,わかば保育園,ワカバホイクエン,,愛知県みよし市三好町大坪54,4700224,35.092496,137.072187,,わかば保育園,0561-34-1151,
23236,,子育て支援施設,保育園,黒笹保育園,クロザサホイクエン,,愛知県みよし市福谷町西大山1-31,4700207,35.126434,137.098067,,黒笹保育園,0561-36-5107,
23236,,子育て支援施設,幼稚園,三好桃山幼稚園,ミヨシモモヤマヨウチエン,,愛知県みよし市西陣取山26-1,4700221,35.088719,137.077812,,三好桃山幼稚園,0561-32-2500,
23236,,子育て支援施設,幼稚園,三好文化幼稚園,ミヨシブンカヨウチエン,,愛知県みよし市三好町弥栄40-1,4700224,35.082442,137.083562,,三好文化幼稚園,0561-32-2561,
23236,,子育て支援施設,幼稚園,東山幼稚園,ヒガシヤマヨウチエン,,愛知県みよし市三好町東山435,4700224,35.088524,137.088139,,東山幼稚園,0561-32-2241,
23236,,子育て支援施設,幼稚園,ベル三好幼稚園,ベルミヨシヨウチエン,,愛知県みよし市三好丘四丁目1-4,4700202,35.121183,137.112,,ベル三好幼稚園,0561-36-1800,
23236,,子育て支援施設,幼稚園,三好丘聖マーガレット幼稚園,ミヨシガオカセイマーガレットヨウチエン,,愛知県みよし市三好丘桜一丁目9,4700204,35.113672,137.109417,,三好丘聖マーガレット幼稚園,0561-36-8373,
23236,,子育て支援施設,幼稚園,まこと第二幼稚園,マコトダイニヨウチエン,,愛知県みよし市莇生町池下8-1,4700206,35.097773,137.099722,,まこと第二幼稚園,0561-34-3354,
23236,,子育て支援施設,児童館,新屋児童館,アラヤジドウカン,,愛知県三好町池ノ原1-21,4700224,35.092377,137.085937,,新屋児童館,0561-34-0751,
23236,,子育て支援施設,児童館,三好上児童館,ミヨシカミジドウカン,,愛知県三好町上103,4700224,35.088363,137.070496,,三好上児童館,0561-34-4067,
23236,,子育て支援施設,児童館,蜂ヶ池児童館,ハチガイケジドウカン,,愛知県三好町蜂ヶ池29-12,4700224,35.084494,137.079238,,蜂ヶ池児童館,0561-34-1850,
23236,,子育て支援施設,児童館,三好下児童館,ミヨシシモジドウカン,,愛知県三好町八和田50-2,4700224,35.085194,137.067775,,三好下児童館,0561-34-2088,
23236,,子育て支援施設,児童館,西一色児童館,ニシイシキジドウカン,,愛知県西一色町池ノ内17,4700226,35.08713,137.058782,,西一色児童館,0561-32-1032,
23236,,子育て支援施設,児童館,福田児童館,フクタジドウカン,,愛知県福田町東屋敷84,4700225,35.071979,137.051022,,福田児童館,0561-34-5018,
23236,,子育て支援施設,児童館,明知上児童館,ミョウチカミジドウカン,,愛知県明知町東谷10,4700214,35.07099,137.081784,,明知上児童館,0561-34-1016,
23236,,子育て支援施設,児童館,明知下児童館,ミョウチシモジドウカン,,愛知県明知町下屋敷17,4700214,35.060767,137.079337,,明知下児童館,0561-34-0622,
23236,,子育て支援施設,児童館,打越児童館,ウチコシジドウカン,,愛知県打越町前田27-1,4700213,35.07361,137.097697,,打越児童館,0561-34-1022,
23236,,子育て支援施設,児童館,莇生児童館,アザブジドウカン,,愛知県莇生町小金下2-1,4700206,35.101392,137.100064,,莇生児童館,0561-34-3327,
23236,,子育て支援施設,児童館,福谷児童館,ウキガイジドウカン,,愛知県福谷町仲田21-3,4700207,35.114317,137.105737,,福谷児童館,0561-36-1585,
23236,,子育て支援施設,児童館,東山児童館,ヒガシヤマジドウカン,,愛知県三好町弥栄31-3,4700224,35.084408,137.082802,,東山児童館,0561-34-3980,
23236,,子育て支援施設,児童館,高嶺児童館,タカネジドウカン,,愛知県打越町新池浦63-1,4700213,35.094191,137.110075,,高嶺児童館,0561-34-5402,
23236,,子育て支援施設,児童クラブ,中部児童クラブ,チュウブジドウクラブ,,愛知県みよし市三好町宮ノ越31,4700224,35.085939,137.07349,,中部児童クラブ,0561-080-1629-9165,
23236,,子育て支援施設,児童クラブ,北部第１児童クラブ,ホクブダイイチジドウクラブ,,愛知県みよし市福谷町坂上18-7,4700207,35.107814,137.095601,,北部第１児童クラブ,090-2262-0526,
23236,,子育て支援施設,児童クラブ,北部第２児童クラブ,ホクブダイニジドウクラブ,,愛知県みよし市福谷町坂上18-7,4700207,35.107814,137.095601,,北部第２児童クラブ,080-2617-1646,
23236,,子育て支援施設,児童クラブ,南部児童クラブ,ナンブジドウクラブ,,愛知県みよし市明知町上細口27,4700214,35.070488,137.088934,,南部児童クラブ,090-7681-8723,
23236,,子育て支援施設,児童クラブ,天王児童クラブ,テンノウジドウクラブ,,愛知県みよし市三好町天王51-75,4700224,35.090166,137.085586,,天王児童クラブ,090-5009-3256,
23236,,子育て支援施設,児童クラブ,三吉児童クラブ,ミヨシジドウクラブ,,愛知県みよし市三好町半野木1-27,4700224,35.08182,137.063211,,三吉児童クラブ,080-1618-9039,
23236,,子育て支援施設,児童クラブ,三好丘児童クラブ,ミヨシガオカジドウクラブ,,愛知県みよし市三好丘７丁目-1,4700202,35.120355,137.112425,,三好丘児童クラブ,080-1629-9166,
23236,,子育て支援施設,児童クラブ,緑丘児童クラブ,ミドリガオカジドウクラブ,,愛知県みよし市三好丘緑一丁目1-1,4700205,35.110992,137.116633,,緑丘児童クラブ,090-2347-4106,
23236,,子育て支援施設,児童クラブ,黒笹児童クラブ,チュウブジドウクラブ,,愛知県みよし市黒笹いずみ三丁目26-1,4700232,35.130195,137.09624,,黒笹児童クラブ,080-1629-9167,
23236,,子育て支援施設,児童クラブ,中部第２児童クラブ,チュウブダイニジドウクラブ,,愛知県みよし市三好町宮ノ越31,4700224,35.085939,137.07349,夏休みのみ,中部第２児童クラブ,080-1629-9165,
23236,,子育て支援施設,児童クラブ,三好丘第２児童クラブ,ミヨシガオカダイニジドウクラブ,,愛知県みよし市三好丘七丁目1,4700202,35.120355,137.112425,夏休みのみ,三好丘第２児童クラブ,080-1629-9166,
23236,,子育て支援施設,児童クラブ,緑丘第２児童クラブ,ミドリガオカダイニジドウクラブ,,愛知県みよし市三好丘緑一丁目1-1,4700205,35.110992,137.116633,夏休みのみ,緑丘第２児童クラブ,090-2347-4106,
23236,,子育て支援施設,子育て施設,みよし市児童発達支援事業所よつば,ミヨシシジドウハッタツシエンジギョウショヨツバ,,愛知県みよし市明知町細口浦41,4700214,35.064785,137.084091,,みよし市児童発達支援事業所よつば,0561-32-1133,
23236,,子育て支援施設,子育て施設,親子通園ルームふたば,オヤコツウエンルームフタバ,,愛知県みよし市明知町細口浦41,4700214,35.064785,137.084091,,親子通園ルームふたば,0561-32-0213,
23236,,子育て支援施設,子育て施設,きたよし地区子育て支援センター,キタヨシチクコソダテシエンセンター,,愛知県みよし市莇生町仲田48-１,4700206,35.101513,137.097748,,きたよし地区子育て支援センター,0561-34-4660,
23236,,子育て支援施設,子育て施設,みなよし地区子育て支援センター,ミナヨシチクコソダテシエンセンター,,愛知県みよし市打越町畦違311,4700213,35.080021,137.092972,,みなよし地区子育て支援センター,0561-34-1867,
23236,,子育て支援施設,子育て施設,三好丘地区子育て支援センター,ミヨシガオカチクコソダテシエンセンター,,愛知県みよし市三好丘桜四丁目11-１,4700204,35.11451,137.117004,,三好丘地区子育て支援センター,0561-36-0785,
23236,,子育て支援施設,子育て施設,黒笹地区子育て支援センター,クロザサチクコソダテシエンセンター,,愛知県みよし市福谷町西大山１1-31,4700207,35.125717,137.098221,,黒笹地区子育て支援センター,0561-36-5722,
23236,,子育て支援施設,子育て施設,子育てふれあい広場（カリヨンハウス内）,コソダテフレアイヒロバ（カリヨンハウスナイ）,,愛知県みよし市三好丘二丁目2-１,4700202,35.125938,137.110519,,子育てふれあい広場（カリヨンハウス内）,0561-36-1181,
23236,,子育て支援施設,子育て施設,キッズハウスみよし,キッズハウスミヨシ,,愛知県みよし市三好丘一丁目11-5,4700202,35.127685,137.110038,,キッズハウスみよし,0561-36-3131,
23236,,子育て支援施設,子育て施設,ちびっこランド三好ヶ丘園,チビッコランドミヨシガオカエン,,愛知県みよし市三好丘二丁目6-4,4700202,35.125179,137.111599,,ちびっこランド三好ヶ丘園,0561-36-6763,
23236,,子育て支援施設,子育て施設,ちびっこランド三好中央園,チビッコランドミヨシチュウオウエン,,愛知県みよし市三好町上75-1,4700224,35.087894,137.067568,,ちびっこランド三好中央園,0561-34-4993,
23236,,子育て支援施設,子育て施設,プティットみよし,プティットミヨシ,,愛知県みよし市三好町八和田33-5,4700224,35.084448,137.067141,,プティットみよし,0561-76-7678,
23236,,子育て支援施設,子育て施設,ぶぅぶパーク,ブーブパーク,,愛知県みよし市打越町下山1,4700213,35.061519,137.090356,,ぶぅぶパーク,0561-34-6035,
23236,,子育て支援施設,子育て施設,キッズクラブ・クックバラ,キッズクラブクックバラ,,愛知県みよし市三好丘四丁目1-4,4700202,35.12118,137.111997,,キッズクラブ・クックバラ,0561-36-8699,
23236,,子育て支援施設,子育て施設,キッズクラブ・クックバラみよし,キッズクラブ・クックバラミヨシ,,愛知県みよし市三好丘一丁目11-5,4700202,35.127685,137.110038,,キッズクラブ・クックバラみよし,0561-36-3131,
23236,,子育て支援施設,子育て施設,エジソンハウス,エジソンハウス,,愛知県みよし市西陣取山26-1,4700221,35.088716,137.077809,,エジソンハウス,0561-32-4443,
23238,KSS001,保育園,公立,上郷保育園,カミゴウホイクエン,,愛知県長久手市前熊志水148,4801102,35.1827172,137.0661435,,子育て支援課,0561-62-3137,
23238,KSS002,保育園,公立,色金保育園,イロガネホイクエン,,愛知県長久手市岩作中島13,4801103,35.1805231,137.0446807,,子育て支援課,0561-62-0136,
23238,KSS003,保育園,公立,長湫東保育園,ナガクテヒガシホイクエン,,愛知県長久手市東狭間703,4801123,35.172835,137.0389052,,子育て支援課,0561-62-0033,
23238,KSS004,保育園,公立,長湫西保育園,ナガクテニシホイクエン,,愛知県長久手市作田二丁目1701,4801153,35.1778979,137.0268286,,子育て支援課,0561-62-1665,
23238,KSS005,保育園,公立,長湫北保育園,ナガクテキタホイクエン,,愛知県長久手市鴨田1001-2,4801165,35.1834578,137.0315852,,子育て支援課,0561-62-2930,
23238,KSS006,保育園,公立,長湫南保育園,ナガクテミナミホイクエン,,愛知県長久手市砂子1204,4801112,35.1694661,137.0434021,,子育て支援課,0561-64-3733,
23238,KSS007,保育園,公設民営,市が洞保育園,イチガホラホイクエン,,愛知県長久手市市が洞一丁目401,4801147,35.1656495,137.0273652,,子育て支援課,0561-64-5620,
23238,KSS008,保育園,私立,アスクはなみずき保育園,アスクハナミズキホクエン,,愛知県長久手市仲田1609,4801167,35.1815587,137.0320556,,株式会社日本保育サービス,0561-64-5161,
23238,KSS009,保育園,私立,アインながくて保育園,アインナガクテホイクエン,,愛知県長久手市山桶117,4801164,35.1840029,137.0317916,,中央出版株式会社,0561-62-4158,
23238,KSS010,保育園,私立,アートチャイルドケア長久手保育園,アートチャイルドケアナガクテホイクエン,,愛知県長久手市東原山46-101,4801158,35.1880901,137.0248756,,アートチャイルドケア株式会社,0561-65-0124,
23238,KSS011,保育園,私立,コロポックル長久手保育園,コロポックルナガクテホイクエン,,愛知県長久手市坊の後1418,4801168,35.1796313,137.0360858,,有限会社杜森キッズワールド,0561-61-3307,
23238,KSS012,家庭的保育,私立,スマイル☆キッズ,スマイルキッズ,,愛知県長久手市杁ケ池1302　ﾎﾟﾆｰﾋﾙC棟101,4801116,35.1704684,137.0328422,,岡本奈美子,0561-62-8123,
23238,KSS013,家庭的保育,私立,パセリ保育室,パセリホイクシツ,,愛知県長久手市熊田701　ｻﾝﾊｲﾂいぼら1-D,4801144,35.17399,137.0236459,,熊倉咲子,0561-76-9924,
23238,KSS014,事業所内保育,私立,愛知淑徳職場内保育室（ＡＳ保育室）,アイチシュクトクショクバナイホイクシツ（エーエスホイクシツ）,,愛知県長久手市片平二丁目9,4801146,35.1573674,137.0292763,,愛知淑徳大学,0561-56-0020,
23238,KSS015,小規模保育,私立,小規模保育事業所キッズハート長久手,ショウキボホイクジギョウショキッズハートナガクテ,,愛知県長久手市井堀208,4801143,35.1727069,137.0264456,,株式会社グローブ・ハート,0561-62-9990,
23238,KSS016,小規模保育,私立,はな保育室はなみずき通,ハナホイクシツハナミズキドオリ,,愛知県長久手市五合池1408,4801156,35.1790173,137.0292422,,株式会社パーソンズ,0561-61-6211,
23238,KSS017,幼稚園,私立,さつき幼稚園,サツキヨウチエン,,愛知県長久手市岩作東島106,4801103,35.1821759,137.0494565,,学校法人鍋島学園,0561-62-0177,
23238,KSS018,幼稚園,私立,愛知たいよう幼稚園,アイチタイヨウヨウチエン,,愛知県長久手市蟹原1601,4801142,35.1669833,137.0311869,,学校法人吉田学園,0561-62-1000,
23238,KSS019,幼稚園,私立,自然幼稚園,シゼンヨウチエン,,愛知県長久手市根嶽1210,4801148,35.1635275,137.0228741,,学校法人吉田学園,0561-63-6366,
23302,,保育園,公立,諸輪保育園,モロワホイクエン,,東郷町大字諸輪字中市135-14,4700151,35.106217,137.067243,,こども課,0561-38-0004,
23302,,保育園,公立,中部保育園,チュウブホイクエン,,東郷町大字春木字上ノ畑986,4700162,35.092737,137.049428,,こども課,0561-39-1921,
23302,,保育園,公立,上城保育園,カミジョウホイクエン,,東郷町大字諸輪字後山1,4700151,35.107802,137.071894,,こども課,0561-38-0515,
23302,,保育園,公立,和合保育園,ワゴウホイクエン,,東郷町大字和合字知々釜130,4700153,35.103409,137.050731,,こども課,0561-38-0002,
23302,,保育園,公立,南部保育園,ナンブホイクエン,,東郷町大字春木字北切山6059-1,4700162,35.078301,137.041923,,こども課,0561-38-0003,
23302,,保育園,公立,音貝保育園,オトガイホイクエン,,東郷町大字春木字音貝77-2,4700162,35.099424,137.029896,,こども課,052-801-8133,
23302,,保育園,公立,たかね保育園,タカネホイクエン,,東郷町白鳥4-1-3,4700155,35.112352,137.055248,,こども課,0561-38-2560,
23302,,保育園,私立,東郷せいぶ保育園,トウゴウセイブホイクエン,,東郷町兵庫1-3-2,4700166,35.093454,137.024542,,こども課,0561-38-9880,http://www.meisei.or.jp/seibu/index.html
23302,,保育園,私立,若葉保育園,ワカバホイクエン,,東郷町大字春木字屋敷3423-3,4700162,35.082419,137.044991,,こども課,0561-39-0109,http://www.wakabahoiku.jp/
23302,,幼稚園,私立,東郷旭丘幼稚園,トウゴウアサヒガオカヨウチエン,,東郷町大字春木字塩田1796-3,4700162,35.096422,137.045227,,こども課,0561-38-1636,http://www.morikawagakuen.jp/tougou/
23302,,保育園,私立,留愛東郷保育園,ルアイトウゴウホイクエン,,東郷町北山台3-3-9,4700152,35.101038,137.061449,,こども課,0561-39-2272,
23302,,小規模保育所,公立,ひよこルーム,ヒヨコルーム,,東郷町大字春木字上ノ畑986,4700162,35.092737,137.049428,,こども課,0561-38-3111,
23302,,小規模保育所,私立,しらとり保育園,シラトリホイクエン,,東郷町御岳2-1-2,4700156,35.111244,137.060438,,こども課,0561-38-3712,
23302,,児童館,公立,東部児童館,トウブジドウカン,,東郷町大字諸輪字稲場9,4700151,35.105274,137.066626,,こども課,0561-38-7100,http://blog.livedoor.jp/tgo_kosodat-tobu/
23302,,児童館,公立,西部児童館,セイブジドウカン,,東郷町大字春木字音貝104,4700162,35.099231,137.029563,,こども課,052-801-2777,http://blog.livedoor.jp/tgo_kosodat-seibu/
23302,,児童館,公立,南部児童館,ナンブジドウカン,,東郷町大字春木字上正葉廻間28-1,4700162,35.085338,137.038554,,こども課,0561-38-8200,http://blog.livedoor.jp/tgo_kosodat-nanbu/
23302,,児童館,公立,北部児童館,ホクブジドウカン,,東郷町白鳥三丁目15,4700155,35.112962,137.057399,,こども課,0561-38-3531,http://blog.livedoor.jp/tgo_kosodat-hokubu/
23302,,児童館,公立,中部児童館,チュウブジドウカン,,東郷町大字春木字東羽根穴12,4700162,35.096698,137.055007,,こども課,0561-38-6000,http://blog.livedoor.jp/tgo_kosodat-chubu/
23302,,児童館,公立,兵庫児童館,ヒョウゴジドウカン,,東郷町兵庫三丁目1,4700166,35.092296,137.023936,,こども課,0561-37-1973,http://www.hamada-sports.com/hyougo_jidoukan/
23302,,ファミリーサポート,公立,とうごうファミリーサポート,トウゴウファミリーサポート,,東郷町大字春木字西羽根穴2225-4（いこまい館内）,4700162,35.096915,137.053362,,こども課,0561-38-9674,
